{
    "fields": [
        {
            "id": "serialnumber",
            "type": "text",
            "info": {
                "label": "編號"
            }
        },
        {
            "id": "name",
            "type": "text",
            "info": {
                "label": "餐廳名稱"
            }
        },
        {
            "id": "address",
            "type": "text",
            "info": {
                "label": "地址"
            }
        },
        {
            "id": "phone",
            "type": "text",
            "info": {
                "label": "聯絡電話"
            }
        },
        {
            "id": "mobilephone",
            "type": "text",
            "info": {
                "label": "行動電話"
            }
        },
        {
            "id": "lat",
            "type": "text",
            "info": {
                "label": "緯度"
            }
        },
        {
            "id": "lng",
            "type": "text",
            "info": {
                "label": "經度"
            }
        },
        {
            "id": "note",
            "type": "text",
            "info": {
                "label": "備註"
            }
        },
        {
            "id": "county",
            "type": "text",
            "info": {
                "label": "縣市"
            }
        },
        {
            "id": "town",
            "type": "text",
            "info": {
                "label": "行政區"
            }
        },
        {
            "id": "village",
            "type": "text",
            "info": {
                "label": "村里"
            }
        }
    ],
    "resource_id": "5cf80434-79d3-45fb-906a-5e44515b9bd7",
    "__extras": {
        "api_key": "173d3da4-59b6-4ecd-9f0f-014af21b74b8"
    },
    "include_total": true,
    "total": "1141",
    "resource_format": "object",
    "limit": "100",
    "offset": "0",
    "_links": {
        "start": "\/api\/v2\/gis_p_11?api_key=173d3da4-59b6-4ecd-9f0f-014af21b74b8&limit=100&format=json",
        "next": "\/api\/v2\/gis_p_11?api_key=173d3da4-59b6-4ecd-9f0f-014af21b74b8&limit=100&format=json&offset=100"
    },
    "records": [
        {
            "serialnumber": "1",
            "name": "TINA廚房－林口店",
            "address": "桃園市龜山區文化三路648號",
            "phone": "03-3180607",
            "mobilephone": "",
            "lat": "25.050156",
            "lng": "121.370554",
            "note": "",
            "county": "桃園市",
            "town": "龜山區",
            "village": ""
        },
        {
            "serialnumber": "2",
            "name": "TINA廚房-桃園八德店",
            "address": "桃園市八德區興豐路1315號",
            "phone": "03-3650329",
            "mobilephone": "",
            "lat": "24.942325",
            "lng": "121.311165",
            "note": "",
            "county": "桃園市",
            "town": "八德區",
            "village": ""
        },
        {
            "serialnumber": "3",
            "name": "TINA廚房－桃園大溪店",
            "address": "桃園市大溪區瑞安路一段175巷55號",
            "phone": "03-3072939",
            "mobilephone": "",
            "lat": "24.887605",
            "lng": "121.280303",
            "note": "",
            "county": "桃園市",
            "town": "大溪區",
            "village": ""
        },
        {
            "serialnumber": "4",
            "name": "飛牛牧場-樂活餐廳",
            "address": "苗栗縣通霄鎮南和里166號",
            "phone": "037-782999",
            "mobilephone": "",
            "lat": "24.440693",
            "lng": "120.741934",
            "note": "",
            "county": "苗栗縣",
            "town": "通霄鎮",
            "village": ""
        },
        {
            "serialnumber": "5",
            "name": "西湖渡假村－御花苑中餐廳",
            "address": "苗栗縣三義鄉西湖村西湖11號",
            "phone": "-",
            "mobilephone": "",
            "lat": "24.389665",
            "lng": "120.760558",
            "note": "",
            "county": "苗栗縣",
            "town": "三義鄉",
            "village": ""
        },
        {
            "serialnumber": "6",
            "name": "西湖渡假村－麗景中餐廳",
            "address": "苗栗縣三義鄉西湖村西湖11號",
            "phone": "037-876699",
            "mobilephone": "",
            "lat": "24.389665",
            "lng": "120.760558",
            "note": "",
            "county": "苗栗縣",
            "town": "三義鄉",
            "village": ""
        },
        {
            "serialnumber": "7",
            "name": "西湖渡假村 West Lake Resortopia",
            "address": "苗栗縣三義鄉西湖村西湖11號",
            "phone": "-",
            "mobilephone": "",
            "lat": "24.389665",
            "lng": "120.760558",
            "note": "",
            "county": "苗栗縣",
            "town": "三義鄉",
            "village": ""
        },
        {
            "serialnumber": "8",
            "name": "牛二爺牛肉麵專賣店",
            "address": "金門縣金城鎮民權路125號",
            "phone": "082-375377",
            "mobilephone": "",
            "lat": "24.434373",
            "lng": "118.315963",
            "note": "",
            "county": "金門縣",
            "town": "金城鎮",
            "village": ""
        },
        {
            "serialnumber": "9",
            "name": "大鋤花間咖啡生態農場",
            "address": "臺南市東山區高原里109之17號",
            "phone": "06-6864350",
            "mobilephone": "",
            "lat": "23.279788",
            "lng": "120.507473",
            "note": "",
            "county": "臺南市",
            "town": "東山區",
            "village": ""
        },
        {
            "serialnumber": "10",
            "name": "街役場古蹟餐坊",
            "address": "臺南市新化區中正路500號",
            "phone": "06-5905599",
            "mobilephone": "",
            "lat": "23.038174",
            "lng": "120.30734",
            "note": "",
            "county": "臺南市",
            "town": "新化區",
            "village": ""
        },
        {
            "serialnumber": "11",
            "name": "日風小棧小吃部",
            "address": "臺中市西屯區臺灣大道三段99號",
            "phone": "-",
            "mobilephone": "",
            "lat": "24.161988",
            "lng": "120.647296",
            "note": "",
            "county": "臺中市",
            "town": "西屯區",
            "village": ""
        },
        {
            "serialnumber": "12",
            "name": "成旅晶贊飯店-台中民權(柏克菲餐廳)",
            "address": "臺中市中區民權路 66 號",
            "phone": "-",
            "mobilephone": "",
            "lat": "24.13753",
            "lng": "120.68069",
            "note": "",
            "county": "臺中市",
            "town": "中區",
            "village": ""
        },
        {
            "serialnumber": "13",
            "name": "成旅晶贊飯店-台中民權(晶贊粵菜廳)",
            "address": "臺中市中區民權路 66 號 2 樓",
            "phone": "-",
            "mobilephone": "",
            "lat": "24.13753",
            "lng": "120.68069",
            "note": "",
            "county": "臺中市",
            "town": "中區",
            "village": ""
        },
        {
            "serialnumber": "14",
            "name": "帕芙琳經典蛋糕店",
            "address": "臺中市大甲區三民路 145 號",
            "phone": "-",
            "mobilephone": "",
            "lat": "24.349138",
            "lng": "120.622001",
            "note": "",
            "county": "臺中市",
            "town": "大甲區",
            "village": ""
        },
        {
            "serialnumber": "15",
            "name": "東勢大碗公冰品店",
            "address": "臺中市東勢區中山路 33 號",
            "phone": "-",
            "mobilephone": "",
            "lat": "24.257248",
            "lng": "120.830358",
            "note": "",
            "county": "臺中市",
            "town": "東勢區",
            "village": ""
        },
        {
            "serialnumber": "16",
            "name": "屋馬燒肉中港店",
            "address": "臺中市西屯區區台灣大道 3 段 300 號",
            "phone": "04-23121000",
            "mobilephone": "",
            "lat": "24.165776",
            "lng": "120.644605",
            "note": "",
            "county": "臺中市",
            "town": "西屯區",
            "village": ""
        },
        {
            "serialnumber": "18",
            "name": "長榮桂冠酒店咖啡廳",
            "address": "臺中市西屯區台灣大道二段 666 號",
            "phone": "-",
            "mobilephone": "",
            "lat": "24.159105",
            "lng": "120.657228",
            "note": "",
            "county": "臺中市",
            "town": "西屯區",
            "village": ""
        },
        {
            "serialnumber": "19",
            "name": "屋馬燒肉文心店",
            "address": "臺中市南屯區文心路一段 436 號",
            "phone": "04-23106699",
            "mobilephone": "",
            "lat": "24.151035",
            "lng": "120.647077",
            "note": "",
            "county": "臺中市",
            "town": "南屯區",
            "village": ""
        },
        {
            "serialnumber": "20",
            "name": "屋馬燒肉園邸店",
            "address": "臺中市西區公益路 111 號 1 樓",
            "phone": "04-23013000",
            "mobilephone": "",
            "lat": "24.150656",
            "lng": "120.666426",
            "note": "",
            "county": "臺中市",
            "town": "西區",
            "village": ""
        },
        {
            "serialnumber": "21",
            "name": "星月之星(星月大地)",
            "address": "臺中市后里區月眉北路 486 號",
            "phone": "-",
            "mobilephone": "",
            "lat": "24.332567",
            "lng": "120.701487",
            "note": "",
            "county": "臺中市",
            "town": "后里區",
            "village": ""
        },
        {
            "serialnumber": "22",
            "name": "星時代婚宴會館",
            "address": "臺中市西屯區西墩里福科路 86 號",
            "phone": "-",
            "mobilephone": "",
            "lat": "24.179577",
            "lng": "120.635414",
            "note": "",
            "county": "臺中市",
            "town": "西屯區",
            "village": ""
        },
        {
            "serialnumber": "23",
            "name": "都市部落有限公司",
            "address": "臺中市西屯區青海路 568 號",
            "phone": "-",
            "mobilephone": "",
            "lat": "24.176318",
            "lng": "120.635626",
            "note": "",
            "county": "臺中市",
            "town": "西屯區",
            "village": ""
        },
        {
            "serialnumber": "24",
            "name": "菇神餐飲有限公司",
            "address": "臺中市新社區協中街 287 號",
            "phone": "-",
            "mobilephone": "",
            "lat": "24.200633",
            "lng": "120.799297",
            "note": "",
            "county": "臺中市",
            "town": "新社區",
            "village": ""
        },
        {
            "serialnumber": "25",
            "name": "菇菇部屋",
            "address": "臺中市新社區協中街 189-1 號",
            "phone": "04-25822598",
            "mobilephone": "",
            "lat": "24.194331",
            "lng": "120.8058",
            "note": "",
            "county": "臺中市",
            "town": "新社區",
            "village": ""
        },
        {
            "serialnumber": "26",
            "name": "福齋精緻素食",
            "address": "臺中市西屯區台灣大道三段 99 號",
            "phone": "-",
            "mobilephone": "",
            "lat": "24.161988",
            "lng": "120.647296",
            "note": "",
            "county": "臺中市",
            "town": "西屯區",
            "village": ""
        },
        {
            "serialnumber": "27",
            "name": "光頭廚房",
            "address": "金門縣金城鎮民族路211號",
            "phone": "082-322617",
            "mobilephone": "",
            "lat": "24.43014",
            "lng": "118.316683",
            "note": "",
            "county": "金門縣",
            "town": "金城鎮",
            "village": ""
        },
        {
            "serialnumber": "28",
            "name": "TAIKO 太鼓",
            "address": "臺中市沙鹿區光華路 316 號",
            "phone": "-",
            "mobilephone": "",
            "lat": "24.241596",
            "lng": "120.565113",
            "note": "",
            "county": "臺中市",
            "town": "沙鹿區",
            "village": ""
        },
        {
            "serialnumber": "29",
            "name": "台中日月千禧酒店-旅覓酒吧",
            "address": "臺中市西屯區市政路 77 號",
            "phone": "04-37056066",
            "mobilephone": "",
            "lat": "24.15687",
            "lng": "120.641982",
            "note": "",
            "county": "臺中市",
            "town": "西屯區",
            "village": ""
        },
        {
            "serialnumber": "30",
            "name": "台中日月千禧酒店-極炙牛排館",
            "address": "臺中市西屯區市政路 77 號",
            "phone": "-",
            "mobilephone": "",
            "lat": "24.15687",
            "lng": "120.641982",
            "note": "",
            "county": "臺中市",
            "town": "西屯區",
            "village": ""
        },
        {
            "serialnumber": "31",
            "name": "三層樓芋頭餐館",
            "address": "金門縣烈嶼鄉黃厝23之1號",
            "phone": "082-362415",
            "mobilephone": "",
            "lat": "24.44648",
            "lng": "118.252201",
            "note": "",
            "county": "金門縣",
            "town": "烈嶼鄉",
            "village": ""
        },
        {
            "serialnumber": "32",
            "name": "台中日月千禧酒店-饗樂全日餐廳",
            "address": "臺中市西屯區市政路 77 號",
            "phone": "-",
            "mobilephone": "",
            "lat": "24.15687",
            "lng": "120.641982",
            "note": "",
            "county": "臺中市",
            "town": "西屯區",
            "village": ""
        },
        {
            "serialnumber": "34",
            "name": "赤沐TAIKO 和洋炉端燒",
            "address": "臺中市西屯區國安一路 168 號",
            "phone": "04-26631188",
            "mobilephone": "",
            "lat": "24.192233",
            "lng": "120.612064",
            "note": "",
            "county": "臺中市",
            "town": "西屯區",
            "village": ""
        },
        {
            "serialnumber": "35",
            "name": "板東屋手作坊",
            "address": "臺中市西區西屯路一段 79 號",
            "phone": "-",
            "mobilephone": "",
            "lat": "24.150061",
            "lng": "120.672827",
            "note": "",
            "county": "臺中市",
            "town": "西區",
            "village": ""
        },
        {
            "serialnumber": "36",
            "name": "湶民商行(水果餐)",
            "address": "金門縣金寧鄉伯玉路二段224巷8號",
            "phone": "082-324489",
            "mobilephone": "",
            "lat": "24.441495",
            "lng": "118.338044",
            "note": "",
            "county": "金門縣",
            "town": "金寧鄉",
            "village": ""
        },
        {
            "serialnumber": "37",
            "name": "屋馬國安有限公司",
            "address": "臺中市西屯區國安一路 168 號 B1-2",
            "phone": "-",
            "mobilephone": "",
            "lat": "24.192233",
            "lng": "120.612064",
            "note": "",
            "county": "臺中市",
            "town": "西屯區",
            "village": ""
        },
        {
            "serialnumber": "38",
            "name": "清新溫泉飯店-天地一家中餐廳",
            "address": "臺中市烏日區溫泉路 2號",
            "phone": "-",
            "mobilephone": "",
            "lat": "24.136679",
            "lng": "120.588579",
            "note": "",
            "county": "臺中市",
            "town": "烏日區",
            "village": ""
        },
        {
            "serialnumber": "39",
            "name": "凱文廚房",
            "address": "臺中市西屯區文華路 135-1號",
            "phone": "04-24524845",
            "mobilephone": "",
            "lat": "24.180589",
            "lng": "120.645976",
            "note": "",
            "county": "臺中市",
            "town": "西屯區",
            "village": ""
        },
        {
            "serialnumber": "40",
            "name": "尊鴻餐飲企業股份有限公司台中分公司(HUN 一中店)",
            "address": "臺中市北區三民路三段 114 號 2樓",
            "phone": "04-22231080",
            "mobilephone": "",
            "lat": "24.149889",
            "lng": "120.684342",
            "note": "",
            "county": "臺中市",
            "town": "北區",
            "village": ""
        },
        {
            "serialnumber": "41",
            "name": "尊鴻餐飲企業股份有限公司逢甲分公司(HUN 貳店)",
            "address": "臺中市西屯區文華路 217-8 號",
            "phone": "04-27085878",
            "mobilephone": "",
            "lat": "24.182389",
            "lng": "120.645894",
            "note": "",
            "county": "臺中市",
            "town": "西屯區",
            "village": ""
        },
        {
            "serialnumber": "42",
            "name": "尊鴻餐飲企業股份有限公司一中分公司(JAI 宅店)",
            "address": "臺中市北區三民路三段 125 號 2樓",
            "phone": "04-22257555",
            "mobilephone": "",
            "lat": "24.14872",
            "lng": "120.68328",
            "note": "",
            "county": "臺中市",
            "town": "北區",
            "village": ""
        },
        {
            "serialnumber": "43",
            "name": "新月梧桐-國美店",
            "address": "臺中市西區五權西三街 123 號",
            "phone": "04-23783181",
            "mobilephone": "",
            "lat": "24.1336",
            "lng": "120.663231",
            "note": "",
            "county": "臺中市",
            "town": "西區",
            "village": ""
        },
        {
            "serialnumber": "44",
            "name": "滬舍餘味餐館",
            "address": "臺中市南屯區公益路二段 537 號",
            "phone": "04-22586111",
            "mobilephone": "",
            "lat": "24.151133",
            "lng": "120.635769",
            "note": "",
            "county": "臺中市",
            "town": "南屯區",
            "village": ""
        },
        {
            "serialnumber": "45",
            "name": "漫森珈琲",
            "address": "臺中市和平區東關路一段 200 號之 8",
            "phone": "-",
            "mobilephone": "",
            "lat": "24.191801",
            "lng": "121.015074",
            "note": "",
            "county": "臺中市",
            "town": "和平區",
            "village": ""
        },
        {
            "serialnumber": "46",
            "name": "熱浪島南洋蔬食茶堂",
            "address": "臺中市南屯區向上路三段 536 號",
            "phone": "-",
            "mobilephone": "",
            "lat": "24.145305",
            "lng": "120.62424",
            "note": "",
            "county": "臺中市",
            "town": "南屯區",
            "village": ""
        },
        {
            "serialnumber": "47",
            "name": "爵色時尚創意餐飲",
            "address": "臺中市沙鹿區光華路 508 號",
            "phone": "-",
            "mobilephone": "",
            "lat": "24.243689",
            "lng": "120.570317",
            "note": "",
            "county": "臺中市",
            "town": "沙鹿區",
            "village": ""
        },
        {
            "serialnumber": "48",
            "name": "醉春園 餐廳",
            "address": "臺中市潭子區中山路 2 段 382 號",
            "phone": "-",
            "mobilephone": "",
            "lat": "24.214037",
            "lng": "120.705434",
            "note": "",
            "county": "臺中市",
            "town": "潭子區",
            "village": ""
        },
        {
            "serialnumber": "50",
            "name": "養素庭餐飲有限公司",
            "address": "臺中市北屯區崇德路二段 208 號",
            "phone": "-",
            "mobilephone": "",
            "lat": "24.173791",
            "lng": "120.685864",
            "note": "",
            "county": "臺中市",
            "town": "北屯區",
            "village": ""
        },
        {
            "serialnumber": "51",
            "name": "橄欖樹農莊",
            "address": "臺中市新社區南華街 31 號",
            "phone": "-",
            "mobilephone": "",
            "lat": "24.177136",
            "lng": "120.802857",
            "note": "",
            "county": "臺中市",
            "town": "新社區",
            "village": ""
        },
        {
            "serialnumber": "52",
            "name": "頤養膳房有限公司",
            "address": "臺中市西屯區福雅路 60 號",
            "phone": "-",
            "mobilephone": "",
            "lat": "24.183876",
            "lng": "120.618679",
            "note": "",
            "county": "臺中市",
            "town": "西屯區",
            "village": ""
        },
        {
            "serialnumber": "53",
            "name": "禮來居小吃店",
            "address": "臺中市西屯區福林路 10 號",
            "phone": "04-24633592",
            "mobilephone": "",
            "lat": "24.18421",
            "lng": "120.614351",
            "note": "",
            "county": "臺中市",
            "town": "西屯區",
            "village": ""
        },
        {
            "serialnumber": "54",
            "name": "福容大飯店股份有限公司",
            "address": "臺北市大安區建國南路1段266號",
            "phone": "02-27019266",
            "mobilephone": "",
            "lat": "25.036656",
            "lng": "121.537195",
            "note": "",
            "county": "臺北市",
            "town": "大安區",
            "village": ""
        },
        {
            "serialnumber": "57",
            "name": "島嶼法式海鮮",
            "address": "臺北市文山區一壽街17號1樓",
            "phone": "-",
            "mobilephone": "",
            "lat": "24.979946",
            "lng": "121.556445",
            "note": "",
            "county": "臺北市",
            "town": "文山區",
            "village": ""
        },
        {
            "serialnumber": "58",
            "name": "Plants",
            "address": "臺北市大安區復興南路1段253巷10號1樓",
            "phone": "02-27845677",
            "mobilephone": "",
            "lat": "25.03675",
            "lng": "121.544189",
            "note": "",
            "county": "臺北市",
            "town": "大安區",
            "village": ""
        },
        {
            "serialnumber": "59",
            "name": "仁里居",
            "address": "臺北市大安區建國南路二段151巷16號",
            "phone": "02-27062522",
            "mobilephone": "",
            "lat": "25.02869",
            "lng": "121.53857",
            "note": "",
            "county": "臺北市",
            "town": "大安區",
            "village": ""
        },
        {
            "serialnumber": "60",
            "name": "JAI宅(台北西門店)",
            "address": "臺北市萬華區武昌街2段50巷10號2樓",
            "phone": "02-23717666",
            "mobilephone": "",
            "lat": "25.044065",
            "lng": "121.506795",
            "note": "",
            "county": "臺北市",
            "town": "萬華區",
            "village": ""
        },
        {
            "serialnumber": "62",
            "name": "陽明山春天書食創作料理士林店",
            "address": "臺北市士林區寈山路119-1號",
            "phone": "-",
            "mobilephone": "",
            "lat": "25.14448",
            "lng": "121.56017",
            "note": "",
            "county": "臺北市",
            "town": "士林區",
            "village": ""
        },
        {
            "serialnumber": "63",
            "name": "安一海南雞飯",
            "address": "基隆市仁愛區孝三路70號",
            "phone": "02-24211448",
            "mobilephone": "",
            "lat": "25.130555",
            "lng": "121.739739",
            "note": "",
            "county": "基隆市",
            "town": "仁愛區",
            "village": ""
        },
        {
            "serialnumber": "64",
            "name": "Mykonos私人島嶼",
            "address": "基隆市中山區湖海路一段37號",
            "phone": "02-24286978",
            "mobilephone": "",
            "lat": "25.163288",
            "lng": "121.725725",
            "note": "",
            "county": "基隆市",
            "town": "中山區",
            "village": ""
        },
        {
            "serialnumber": "66",
            "name": "蘇菲的家",
            "address": "基隆市信義區信二路25號",
            "phone": "02-24289800",
            "mobilephone": "",
            "lat": "25.128931",
            "lng": "121.756921",
            "note": "",
            "county": "基隆市",
            "town": "信義區",
            "village": ""
        },
        {
            "serialnumber": "67",
            "name": "谷巴休閒渡假村",
            "address": "苗栗縣造橋鄉造橋村過港坪11鄰8-6號",
            "phone": "-",
            "mobilephone": "",
            "lat": "24.635912",
            "lng": "120.875425",
            "note": "",
            "county": "苗栗縣",
            "town": "造橋鄉",
            "village": ""
        },
        {
            "serialnumber": "68",
            "name": "御廚川菜餐廳",
            "address": "苗栗縣苑裡鎮中山路322號",
            "phone": "-",
            "mobilephone": "",
            "lat": "24.447862",
            "lng": "120.655407",
            "note": "",
            "county": "苗栗縣",
            "town": "苑裡鎮",
            "village": ""
        },
        {
            "serialnumber": "70",
            "name": "卓也小屋",
            "address": "苗栗縣三義鄉雙潭村13鄰崩山下1-5號",
            "phone": "037-879198",
            "mobilephone": "",
            "lat": "24.392843",
            "lng": "120.797134",
            "note": "",
            "county": "苗栗縣",
            "town": "三義鄉",
            "village": ""
        },
        {
            "serialnumber": "71",
            "name": "龍園餐廳",
            "address": "苗栗縣苑裡鎮中山路322號",
            "phone": "-",
            "mobilephone": "",
            "lat": "24.447862",
            "lng": "120.655407",
            "note": "",
            "county": "苗栗縣",
            "town": "苑裡鎮",
            "village": ""
        },
        {
            "serialnumber": "72",
            "name": "蒸烹派客家美食餐廳",
            "address": "苗栗縣三義鄉雙湖村13鄰雙湖5之5號",
            "phone": "037-876482",
            "mobilephone": "",
            "lat": "24.422736",
            "lng": "120.774551",
            "note": "",
            "county": "苗栗縣",
            "town": "三義鄉",
            "village": ""
        },
        {
            "serialnumber": "73",
            "name": "赤崁璽樓",
            "address": "臺南市中西區西門路二段372巷10號",
            "phone": "06-2245179",
            "mobilephone": "",
            "lat": "22.998083",
            "lng": "120.200985",
            "note": "",
            "county": "臺南市",
            "town": "中西區",
            "village": ""
        },
        {
            "serialnumber": "77",
            "name": "江南渡假村-桂華園中餐廳",
            "address": "臺南市柳營區旭山里60號",
            "phone": "06-6233888#3210",
            "mobilephone": "",
            "lat": "23.270309",
            "lng": "120.384594",
            "note": "",
            "county": "臺南市",
            "town": "柳營區",
            "village": ""
        },
        {
            "serialnumber": "78",
            "name": "江南渡假村-盧卡西餐廳",
            "address": "臺南市柳營區旭山里60號",
            "phone": "06-6233888",
            "mobilephone": "",
            "lat": "23.270309",
            "lng": "120.384594",
            "note": "",
            "county": "臺南市",
            "town": "柳營區",
            "village": ""
        },
        {
            "serialnumber": "80",
            "name": "台南市政府員工餐廳(大道食品有限公司)",
            "address": "臺南市安平區永華路二段6號B1",
            "phone": "06-2223305",
            "mobilephone": "",
            "lat": "22.989657",
            "lng": "120.184747",
            "note": "",
            "county": "臺南市",
            "town": "安平區",
            "village": ""
        },
        {
            "serialnumber": "81",
            "name": "中華醫事科技大學-健康樂活餐廳",
            "address": "臺南市仁德區文華一街89號",
            "phone": "06-2674567",
            "mobilephone": "",
            "lat": "22.960978",
            "lng": "120.24336",
            "note": "",
            "county": "臺南市",
            "town": "仁德區",
            "village": ""
        },
        {
            "serialnumber": "82",
            "name": "月光咖啡館",
            "address": "臺南市東區崇明路405號2樓",
            "phone": "06-2904749",
            "mobilephone": "",
            "lat": "22.973773",
            "lng": "120.223985",
            "note": "",
            "county": "臺南市",
            "town": "東區",
            "village": ""
        },
        {
            "serialnumber": "83",
            "name": "醬醬披薩Big John Pizza",
            "address": "臺南市東區中華東路三段351號",
            "phone": "暫不提供",
            "mobilephone": "",
            "lat": "22.973831",
            "lng": "120.222631",
            "note": "",
            "county": "臺南市",
            "town": "東區",
            "village": ""
        },
        {
            "serialnumber": "84",
            "name": "東香台菜海味料理",
            "address": "臺南市安南區安中路六段217號",
            "phone": "06-2573888",
            "mobilephone": "",
            "lat": "23.060746",
            "lng": "120.136596",
            "note": "",
            "county": "臺南市",
            "town": "安南區",
            "village": ""
        },
        {
            "serialnumber": "85",
            "name": "地利小食",
            "address": "臺南市將軍區將富里48號",
            "phone": "06-7945571",
            "mobilephone": "",
            "lat": "23.215406",
            "lng": "120.131769",
            "note": "",
            "county": "臺南市",
            "town": "將軍區",
            "village": ""
        },
        {
            "serialnumber": "86",
            "name": "台南維悅酒店中餐廳",
            "address": "臺南市安平區慶平路539號",
            "phone": "06-2950888",
            "mobilephone": "",
            "lat": "22.997178",
            "lng": "120.171561",
            "note": "",
            "county": "臺南市",
            "town": "安平區",
            "village": ""
        },
        {
            "serialnumber": "88",
            "name": "龍之園餐廳",
            "address": "宜蘭縣五結鄉親河路一段166號",
            "phone": "03-9600287",
            "mobilephone": "",
            "lat": "24.668323",
            "lng": "121.81899",
            "note": "",
            "county": "宜蘭縣",
            "town": "五結鄉",
            "village": ""
        },
        {
            "serialnumber": "89",
            "name": "欣瓏徠海鮮餐廳",
            "address": "宜蘭縣五結鄉親河路二段236號",
            "phone": "暫不提供",
            "mobilephone": "",
            "lat": "24.673791",
            "lng": "121.805768",
            "note": "",
            "county": "宜蘭縣",
            "town": "五結鄉",
            "village": ""
        },
        {
            "serialnumber": "92",
            "name": "茶宴飲茶美食館",
            "address": "宜蘭縣羅東鎮倉前路30號",
            "phone": "03-9577757",
            "mobilephone": "",
            "lat": "24.680212",
            "lng": "121.774038",
            "note": "",
            "county": "宜蘭縣",
            "town": "羅東鎮",
            "village": ""
        },
        {
            "serialnumber": "94",
            "name": "年年小館",
            "address": "宜蘭縣羅東鎮陽明路126號",
            "phone": "03-9567858",
            "mobilephone": "",
            "lat": "24.678768",
            "lng": "121.776795",
            "note": "",
            "county": "宜蘭縣",
            "town": "羅東鎮",
            "village": ""
        },
        {
            "serialnumber": "97",
            "name": "三隻貓咖啡",
            "address": "宜蘭縣冬山鄉冬山路5段380號",
            "phone": "暫不提供",
            "mobilephone": "",
            "lat": "24.668693",
            "lng": "121.767251",
            "note": "",
            "county": "宜蘭縣",
            "town": "冬山鄉",
            "village": ""
        },
        {
            "serialnumber": "98",
            "name": "九號製造所",
            "address": "宜蘭縣五結鄉中正路二段6-8號",
            "phone": "03-9655006",
            "mobilephone": "",
            "lat": "24.694369",
            "lng": "121.771229",
            "note": "",
            "county": "宜蘭縣",
            "town": "五結鄉",
            "village": ""
        },
        {
            "serialnumber": "101",
            "name": "日日拌飯丸企業",
            "address": "宜蘭縣羅東鎮浮崙巷29號",
            "phone": "03-9530857",
            "mobilephone": "",
            "lat": "24.675138",
            "lng": "121.765956",
            "note": "",
            "county": "宜蘭縣",
            "town": "羅東鎮",
            "village": ""
        },
        {
            "serialnumber": "102",
            "name": "一佳村養生餐廳",
            "address": "宜蘭縣冬山鄉中山村中城二路58巷11號",
            "phone": "0935-289449",
            "mobilephone": "",
            "lat": "24.627032",
            "lng": "121.748741",
            "note": "",
            "county": "宜蘭縣",
            "town": "冬山鄉",
            "village": ""
        },
        {
            "serialnumber": "103",
            "name": "飛諭豆花坊",
            "address": "宜蘭縣宜蘭市中山路三段145號",
            "phone": "暫不提供",
            "mobilephone": "",
            "lat": "24.759257",
            "lng": "121.752897",
            "note": "",
            "county": "宜蘭縣",
            "town": "宜蘭市",
            "village": ""
        },
        {
            "serialnumber": "105",
            "name": "振誠企業社（OBar 歐吧廚房）",
            "address": "宜蘭縣羅東鎮中正路198號2樓",
            "phone": "暫不提供",
            "mobilephone": "",
            "lat": "24.677488",
            "lng": "121.772008",
            "note": "",
            "county": "宜蘭縣",
            "town": "羅東鎮",
            "village": ""
        },
        {
            "serialnumber": "108",
            "name": "宜蘭安永樂活股份有限公司（安永心食館）",
            "address": "宜蘭縣蘇澳鎮中山路2段415號",
            "phone": "03-9953399",
            "mobilephone": "",
            "lat": "24.614903",
            "lng": "121.817919",
            "note": "",
            "county": "宜蘭縣",
            "town": "蘇澳鎮",
            "village": ""
        },
        {
            "serialnumber": "109",
            "name": "握協成股份有限公司（握咖啡Oh!Cafe)",
            "address": "宜蘭縣羅東鎮純精路三段453號",
            "phone": "03-9532377",
            "mobilephone": "",
            "lat": "24.688212",
            "lng": "121.770256",
            "note": "",
            "county": "宜蘭縣",
            "town": "羅東鎮",
            "village": ""
        },
        {
            "serialnumber": "110",
            "name": "飛魚食染冷飲店",
            "address": "宜蘭縣冬山鄉冬山路186號1樓",
            "phone": "03-9595020",
            "mobilephone": "",
            "lat": "24.634913",
            "lng": "121.789929",
            "note": "",
            "county": "宜蘭縣",
            "town": "冬山鄉",
            "village": ""
        },
        {
            "serialnumber": "111",
            "name": "太平山國家森林遊樂區太平山莊餐廳",
            "address": "宜蘭縣大同鄉太平村58-1號",
            "phone": "03-9809806",
            "mobilephone": "",
            "lat": "24.492345",
            "lng": "121.536542",
            "note": "",
            "county": "宜蘭縣",
            "town": "大同鄉",
            "village": ""
        },
        {
            "serialnumber": "112",
            "name": "伊丼食堂",
            "address": "宜蘭縣羅東鎮林森路155號",
            "phone": "暫不提供",
            "mobilephone": "",
            "lat": "24.680154",
            "lng": "121.766874",
            "note": "",
            "county": "宜蘭縣",
            "town": "羅東鎮",
            "village": ""
        },
        {
            "serialnumber": "114",
            "name": "蜻蜓石",
            "address": "宜蘭縣頭城鎮仙公路201巷65號",
            "phone": "暫不提供",
            "mobilephone": "",
            "lat": "24.878539",
            "lng": "121.821843",
            "note": "",
            "county": "宜蘭縣",
            "town": "頭城鎮",
            "village": ""
        },
        {
            "serialnumber": "115",
            "name": "好喫食藝",
            "address": "宜蘭縣冬山鄉冬山路三段136號",
            "phone": "暫不提供",
            "mobilephone": "",
            "lat": "24.655975",
            "lng": "121.779663",
            "note": "",
            "county": "宜蘭縣",
            "town": "冬山鄉",
            "village": ""
        },
        {
            "serialnumber": "122",
            "name": "翰林茶館桃園中正店",
            "address": "桃園市桃園區中正路20號9樓",
            "phone": "03-3473159",
            "mobilephone": "",
            "lat": "24.989865",
            "lng": "121.314076",
            "note": "",
            "county": "桃園市",
            "town": "桃園區",
            "village": ""
        },
        {
            "serialnumber": "123",
            "name": "百基企業有限公司(桃園店香草工坊)",
            "address": "桃園市桃園區中正路20號9F",
            "phone": "03-3393933",
            "mobilephone": "",
            "lat": "24.989865",
            "lng": "121.314076",
            "note": "",
            "county": "桃園市",
            "town": "桃園區",
            "village": ""
        },
        {
            "serialnumber": "126",
            "name": "JAI宅新竹巨城店",
            "address": "新竹市東區民權路195號一樓",
            "phone": "03-5439988",
            "mobilephone": "",
            "lat": "24.809968",
            "lng": "120.973271",
            "note": "",
            "county": "新竹市",
            "town": "東區",
            "village": ""
        },
        {
            "serialnumber": "129",
            "name": "財團法人新竹市私立愛恆啟智中心(慢飛兒庇護工廠)",
            "address": "新竹市北區東大路四段32號",
            "phone": "03-5366780",
            "mobilephone": "",
            "lat": "24.841512",
            "lng": "120.93619",
            "note": "",
            "county": "新竹市",
            "town": "北區",
            "village": ""
        },
        {
            "serialnumber": "130",
            "name": "綠舍奇蹟健康蔬食餐廳",
            "address": "新竹市北區武陵路30號1樓",
            "phone": "03-5322727",
            "mobilephone": "",
            "lat": "24.816068",
            "lng": "120.963306",
            "note": "",
            "county": "新竹市",
            "town": "北區",
            "village": ""
        },
        {
            "serialnumber": "131",
            "name": "實物生活 x 攪攪雜食舖 Real Things x la-la-e",
            "address": "新竹市北區水田街91巷9號",
            "phone": "03-5313923",
            "mobilephone": "",
            "lat": "24.815842",
            "lng": "120.967493",
            "note": "",
            "county": "新竹市",
            "town": "北區",
            "village": ""
        },
        {
            "serialnumber": "135",
            "name": "邊界驛站新豐店",
            "address": "新竹縣新豐鄉鳳坑村坑子口569-7號",
            "phone": "03-5575577",
            "mobilephone": "",
            "lat": "24.924236",
            "lng": "120.975239",
            "note": "",
            "county": "新竹縣",
            "town": "新豐鄉",
            "village": ""
        },
        {
            "serialnumber": "136",
            "name": "富嘉休閒奧萬大餐廳",
            "address": "南投縣仁愛鄉大安路150號",
            "phone": "04-92974988",
            "mobilephone": "",
            "lat": "23.960111",
            "lng": "121.130059",
            "note": "",
            "county": "南投縣",
            "town": "仁愛鄉",
            "village": ""
        },
        {
            "serialnumber": "137",
            "name": "springjam果醬店",
            "address": "南投縣埔里鎮信義路121號",
            "phone": "04-92983278",
            "mobilephone": "",
            "lat": "23.973008",
            "lng": "120.975562",
            "note": "",
            "county": "南投縣",
            "town": "埔里鎮",
            "village": ""
        }
    ]
}